{"nodes":[
  {
    "id":0,
    "longitude":139.342520,
    "latitude":36.409987,
    "name":"東小学校",
    "address":"桐生市仲町二丁目4番21号",
    "tel":"0277-45-2432"
  },
  {
    "id":1,
    "longitude":139.337114,
    "latitude":36.414908,
    "name":"西小学校",
    "address":"桐生市小曽根町1番9号",
    "tel":"0277-22-3171"
  },
  {
    "id":2,
    "longitude":139.339284,
    "latitude":36.399615,
    "name":"南小学校",
    "address":"桐生市新宿二丁目7番1号",
    "tel":"0277-44-2435"
  },
  {
    "id":3,
    "longitude":139.341114,
    "latitude":36.417891,
    "name":"北小学校",
    "address":"桐生市西久方町三丁目1番5号",
    "tel":"0277-22-3173"
  },
  {
    "id":4,
    "longitude":139.353696,
    "latitude":36.384392,
    "name":"境野小学校",
    "address":"桐生市境野町六丁目1616番地の1",
    "tel":"0277-45-2648"
  },
  {
    "id":5,
    "longitude":139.338988,
    "latitude":36.381059,
    "name":"広沢小学校",
    "address":"桐生市広沢町四丁目2044番地の2",
    "tel":"0277-52-2028"
  },
  {
    "id":6,
    "longitude":139.380192,
    "latitude":36.452234,
    "name":"梅田南小学校",
    "address":"桐生市梅田町二丁目179番地",
    "tel":"0277-32-1400"
  },
  {
    "id":7,
    "longitude":139.309794,
    "latitude":36.413338,
    "name":"相生小学校",
    "address":"桐生市相生町二丁目420番地",
    "tel":"0277-54-4785"
  },
  {
    "id":8,
    "longitude":139.305321,
    "latitude":36.432556,
    "name":"川内小学校",
    "address":"桐生市川内町三丁目572番地",
    "tel":"0277-65-9021"
  },
  {
    "id":9,
    "longitude":139.319269,
    "latitude":36.398640,
    "name":"桜木小学校",
    "address":"桐生市相生町一丁目383番地",
    "tel":"0277-53-1400"
  },
  {
    "id":10,
    "longitude":139.356631,
    "latitude":36.412780,
    "name":"菱小学校",
    "address":"桐生市菱町二丁目1919番地の1",
    "tel":"0277-44-4342"
  },
  {
    "id":11,
    "longitude":139.295697,
    "latitude":36.407833,
    "name":"天沼小学校",
    "address":"桐生市相生町五丁目713番地の1",
    "tel":"0277-52-5600"
  },
  {
    "id":12,
    "longitude":139.321944,
    "latitude":36.389243,
    "name":"神明小学校",
    "address":"桐生市広沢町二丁目3242番地の1",
    "tel":"0277-53-1101"
  },
  {
    "id":13,
    "longitude":139.321944,
    "latitude":36.389243,
    "name":"新里中央小学校",
    "address":"桐生市新里町小林甲60番地",
    "tel":"0277-74-8449"
  },
  {
    "id":14,
    "longitude":139.256910,
    "latitude":36.420912,
    "name":"新里東小学校",
    "address":"桐生市新里町新川2072番地",
    "tel":"0277-74-3115"
  },
  {
    "id":15,
    "longitude":139.232928,
    "latitude":36.449916,
    "name":"新里北小学校",
    "address":"桐生市新里町大久保302番地",
    "tel":"0277-74-3452"
  },
  {
    "id":16,
    "longitude":139.285085,
    "latitude":36.507016,
    "name":"黒保根小学校",
    "address":"桐生市黒保根町水沼400番地",
    "tel":"0277-96-2508"
  }
]}
